$GPGGA,130430.00,3226.84422,N,11112.46348,W,2,12,0.56,601.9,M,-28.3,M,,0000*7E

$GPGGA,130431.00,3226.84420,N,11112.46344,W,2,12,0.56,601.9,M,-28.3,M,,0000*71

$GPGGA,130432.00,3226.84417,N,11112.46341,W,2,12,0.56,601.7,M,-28.3,M,,0000*7D

$GPGGA,130433.00,3226.84416,N,11112.46338,W,2,12,0.59,601.7,M,-28.3,M,,0000*7C

$GPGGA,130434.00,3226.84414,N,11112.46336,W,2,12,0.56,601.6,M,-28.3,M,,0000*79

$GPGGA,130435.00,3226.84409,N,11112.46334,W,2,12,0.59,601.4,M,-28.3,M,,0000*7B

$GPGGA,130436.00,3226.84405,N,11112.46330,W,2,12,0.59,601.3,M,-28.3,M,,0000*77

$GPGGA,130437.00,3226.84400,N,11112.46326,W,2,12,0.59,601.3,M,-28.3,M,,0000*74

$GPGGA,130438.00,3226.84397,N,11112.46322,W,2,12,0.59,601.2,M,-28.3,M,,0000*77

$GPGGA,130439.00,3226.84395,N,11112.46318,W,2,12,0.59,601.1,M,-28.3,M,,0000*7E

$GPGGA,130440.00,3226.84393,N,11112.46314,W,2,12,0.59,601.0,M,-28.3,M,,0000*7B

$GPGGA,130441.00,3226.84389,N,11112.46311,W,2,12,0.59,601.0,M,-28.3,M,,0000*74

$GPGGA,130442.00,3226.84384,N,11112.46308,W,2,12,0.59,601.0,M,-28.3,M,,0000*72

$GPGGA,130443.00,3226.84381,N,11112.46305,W,2,12,0.59,600.9,M,-28.3,M,,0000*73

$GPGGA,130444.00,3226.84377,N,11112.46301,W,2,12,0.59,600.8,M,-28.3,M,,0000*78

$GPGGA,130445.00,3226.84375,N,11112.46297,W,2,12,0.59,600.8,M,-28.3,M,,0000*75

$GPGGA,130446.00,3226.84372,N,11112.46294,W,2,12,0.56,600.7,M,-28.3,M,,0000*72

$GPGGA,130447.00,3226.84370,N,11112.46291,W,2,12,0.56,600.7,M,-28.3,M,,0000*74

$GPGGA,130448.00,3226.84376,N,11112.46285,W,2,12,0.56,600.8,M,-28.3,M,,0000*77

$GPGGA,130449.00,3226.84379,N,11112.46276,W,2,12,0.56,600.9,M,-28.3,M,,0000*74

$GPGGA,130450.00,3226.84384,N,11112.46267,W,2,12,0.56,601.0,M,-28.3,M,,0000*76

$GPGGA,130451.00,3226.84388,N,11112.46263,W,2,12,0.56,601.2,M,-28.3,M,,0000*7D

$GPGGA,130452.00,3226.84389,N,11112.46259,W,2,12,0.56,601.3,M,-28.3,M,,0000*77

$GPGGA,130453.00,3226.84391,N,11112.46259,W,2,12,0.56,601.4,M,-28.3,M,,0000*78

$GPGGA,130454.00,3226.84392,N,11112.46257,W,2,12,0.56,601.5,M,-28.3,M,,0000*73

$GPGGA,130455.00,3226.84392,N,11112.46255,W,2,12,0.56,601.7,M,-28.3,M,,0000*72

$GPGGA,130456.00,3226.84391,N,11112.46252,W,2,12,0.56,601.8,M,-28.3,M,,0000*7A

$GPGGA,130457.00,3226.84390,N,11112.46251,W,2,12,0.56,601.9,M,-28.3,M,,0000*78

$GPGGA,130458.00,3226.84389,N,11112.46253,W,2,12,0.56,601.9,M,-28.3,M,,0000*7D

$GPGGA,130459.00,3226.84387,N,11112.46254,W,2,12,0.56,601.9,M,-28.3,M,,0000*75

$GPGGA,130500.00,3226.84384,N,11112.46246,W,2,12,0.56,602.1,M,-28.3,M,,0000*73

$GPGGA,130501.00,3226.84384,N,11112.46245,W,2,12,0.56,602.3,M,-28.3,M,,0000*73

$GPGGA,130502.00,3226.84383,N,11112.46240,W,2,12,0.56,602.5,M,-28.3,M,,0000*74

$GPGGA,130503.00,3226.84386,N,11112.46238,W,2,12,0.56,602.6,M,-28.3,M,,0000*7C

$GPGGA,130504.00,3226.84389,N,11112.46236,W,2,12,0.56,602.8,M,-28.3,M,,0000*74

$GPGGA,130505.00,3226.84389,N,11112.46235,W,2,12,0.59,602.9,M,-28.3,M,,0000*78

$GPGGA,130506.00,3226.84390,N,11112.46230,W,2,12,0.59,603.1,M,-28.3,M,,0000*7F

$GPGGA,130507.00,3226.84391,N,11112.46227,W,2,12,0.59,603.4,M,-28.3,M,,0000*7C

$GPGGA,130508.00,3226.84393,N,11112.46225,W,2,12,0.62,603.4,M,-28.3,M,,0000*7B

$GPGGA,130509.00,3226.84391,N,11112.46224,W,2,12,0.59,603.5,M,-28.3,M,,0000*70

$GPGGA,130510.00,3226.84394,N,11112.46223,W,2,12,0.64,603.6,M,-28.3,M,,0000*77

$GPGGA,130511.00,3226.84396,N,11112.46224,W,2,12,0.64,603.6,M,-28.3,M,,0000*73

$GPGGA,130512.00,3226.84393,N,11112.46229,W,2,12,0.59,603.8,M,-28.3,M,,0000*78

$GPGGA,130513.00,3226.84397,N,11112.46233,W,2,12,0.59,603.8,M,-28.3,M,,0000*76

$GPGGA,130514.00,3226.84391,N,11112.46237,W,2,12,0.62,604.0,M,-28.3,M,,0000*74

$GPGGA,130515.00,3226.84392,N,11112.46239,W,2,12,0.65,604.2,M,-28.3,M,,0000*7D

$GPGGA,130516.00,3226.84394,N,11112.46240,W,2,12,0.59,604.3,M,-28.3,M,,0000*78

$GPGGA,130517.00,3226.84396,N,11112.46241,W,2,12,0.68,604.3,M,-28.3,M,,0000*78

$GPGGA,130518.00,3226.84397,N,11112.46241,W,2,12,0.62,604.4,M,-28.3,M,,0000*7B

$GPGGA,130519.00,3226.84390,N,11112.46236,W,2,12,0.62,604.5,M,-28.3,M,,0000*7C

$GPGGA,130520.00,3226.84393,N,11112.46232,W,2,12,0.62,604.5,M,-28.3,M,,0000*71

$GPGGA,130521.00,3226.84395,N,11112.46231,W,2,12,0.59,604.6,M,-28.3,M,,0000*7E

$GPGGA,130522.00,3226.84396,N,11112.46231,W,2,12,0.59,604.8,M,-28.3,M,,0000*70

$GPGGA,130523.00,3226.84396,N,11112.46234,W,2,12,0.59,604.8,M,-28.3,M,,0000*74

$GPGGA,130524.00,3226.84396,N,11112.46234,W,2,12,0.59,604.8,M,-28.3,M,,0000*73

$GPGGA,130525.00,3226.84396,N,11112.46233,W,2,12,0.59,605.0,M,-28.3,M,,0000*7C

$GPGGA,130526.00,3226.84395,N,11112.46231,W,2,12,0.59,605.1,M,-28.3,M,,0000*7F

$GPGGA,130527.00,3226.84397,N,11112.46228,W,2,12,0.59,605.1,M,-28.3,M,,0000*74

$GPGGA,130528.00,3226.84404,N,11112.46220,W,2,12,0.59,605.1,M,-28.3,M,,0000*7E

$GPGGA,130529.00,3226.84407,N,11112.46219,W,2,12,0.59,605.0,M,-28.3,M,,0000*77

$GPGGA,130530.00,3226.84410,N,11112.46219,W,2,12,0.56,605.1,M,-28.3,M,,0000*77

$GPGGA,130531.00,3226.84413,N,11112.46218,W,2,12,0.56,605.2,M,-28.3,M,,0000*77

$GPGGA,130532.00,3226.84414,N,11112.46218,W,2,12,0.56,605.4,M,-28.3,M,,0000*75

$GPGGA,130533.00,3226.84416,N,11112.46216,W,2,12,0.56,605.6,M,-28.3,M,,0000*7A

$GPGGA,130534.00,3226.84417,N,11112.46215,W,2,12,0.56,605.7,M,-28.3,M,,0000*7E

$GPGGA,130535.00,3226.84415,N,11112.46211,W,2,12,0.56,605.8,M,-28.3,M,,0000*76

$GPGGA,130536.00,3226.84414,N,11112.46209,W,2,12,0.56,606.0,M,-28.3,M,,0000*76

$GPGGA,130537.00,3226.84412,N,11112.46205,W,2,12,0.56,606.2,M,-28.3,M,,0000*7F

$GPGGA,130538.00,3226.84412,N,11112.46204,W,2,12,0.56,606.3,M,-28.3,M,,0000*70

$GPGGA,130539.00,3226.84412,N,11112.46205,W,2,12,0.56,606.4,M,-28.3,M,,0000*77

$GPGGA,130540.00,3226.84411,N,11112.46204,W,2,12,0.58,606.5,M,-28.3,M,,0000*74

$GPGGA,130541.00,3226.84410,N,11112.46205,W,2,12,0.58,606.6,M,-28.3,M,,0000*76

$GPGGA,130542.00,3226.84409,N,11112.46206,W,2,12,0.58,606.7,M,-28.3,M,,0000*7F

$GPGGA,130543.00,3226.84409,N,11112.46210,W,2,12,0.58,606.7,M,-28.3,M,,0000*79

$GPGGA,130544.00,3226.84411,N,11112.46210,W,2,12,0.58,606.7,M,-28.3,M,,0000*77

$GPGGA,130545.00,3226.84412,N,11112.46209,W,2,12,0.58,606.6,M,-28.3,M,,0000*7C

$GPGGA,130546.00,3226.84410,N,11112.46207,W,2,12,0.58,606.5,M,-28.3,M,,0000*70

$GPGGA,130547.00,3226.84409,N,11112.46208,W,2,12,0.58,606.3,M,-28.3,M,,0000*70

$GPGGA,130548.00,3226.84410,N,11112.46206,W,2,12,0.58,606.2,M,-28.3,M,,0000*78

$GPGGA,130549.00,3226.84411,N,11112.46206,W,2,12,0.56,606.1,M,-28.3,M,,0000*75

$GPGGA,130550.00,3226.84411,N,11112.46204,W,2,12,0.56,606.0,M,-28.3,M,,0000*7E

$GPGGA,130551.00,3226.84412,N,11112.46204,W,2,12,0.56,606.0,M,-28.3,M,,0000*7C

$GPGGA,130552.00,3226.84413,N,11112.46203,W,2,12,0.59,605.9,M,-28.3,M,,0000*7C

$GPGGA,130553.00,3226.84414,N,11112.46203,W,2,12,0.59,605.8,M,-28.3,M,,0000*7B

$GPGGA,130554.00,3226.84417,N,11112.46202,W,2,12,0.59,605.7,M,-28.3,M,,0000*71

$GPGGA,130555.00,3226.84420,N,11112.46203,W,2,12,0.62,605.7,M,-28.3,M,,0000*7D

$GPGGA,130556.00,3226.84422,N,11112.46203,W,2,12,0.62,605.6,M,-28.3,M,,0000*7D

$GPGGA,130557.00,3226.84420,N,11112.46201,W,2,12,0.59,605.6,M,-28.3,M,,0000*74

$GPGGA,130558.00,3226.84419,N,11112.46199,W,2,12,0.59,605.6,M,-28.3,M,,0000*73

$GPGGA,130559.00,3226.84420,N,11112.46199,W,2,12,0.59,605.6,M,-28.3,M,,0000*78

$GPGGA,130600.00,3226.84420,N,11112.46199,W,2,12,0.59,605.6,M,-28.3,M,,0000*77

$GPGGA,130601.00,3226.84420,N,11112.46198,W,2,12,0.61,605.6,M,-28.3,M,,0000*7C

$GPGGA,130602.00,3226.84421,N,11112.46198,W,2,12,0.61,605.6,M,-28.3,M,,0000*7E

$GPGGA,130603.00,3226.84424,N,11112.46199,W,2,12,0.59,605.6,M,-28.3,M,,0000*70

$GPGGA,130604.00,3226.84427,N,11112.46197,W,2,12,0.59,605.6,M,-28.3,M,,0000*7A

$GPGGA,130605.00,3226.84429,N,11112.46201,W,2,12,0.59,605.7,M,-28.3,M,,0000*78

$GPGGA,130606.00,3226.84429,N,11112.46205,W,2,12,0.59,605.6,M,-28.3,M,,0000*7E

$GPGGA,130607.00,3226.84430,N,11112.46207,W,2,12,0.59,605.6,M,-28.3,M,,0000*75

$GPGGA,130608.00,3226.84431,N,11112.46210,W,2,12,0.59,605.5,M,-28.3,M,,0000*7E

$GPGGA,130609.00,3226.84432,N,11112.46211,W,2,12,0.59,605.5,M,-28.3,M,,0000*7D

$GPGGA,130610.00,3226.84432,N,11112.46213,W,2,12,0.64,605.4,M,-28.3,M,,0000*78

$GPGGA,130611.00,3226.84430,N,11112.46211,W,2,12,0.59,605.3,M,-28.3,M,,0000*70

$GPGGA,130612.00,3226.84428,N,11112.46211,W,2,12,0.54,605.3,M,-28.3,M,,0000*77

$GPGGA,130613.00,3226.84427,N,11112.46212,W,2,12,0.63,605.3,M,-28.3,M,,0000*7E

$GPGGA,130614.00,3226.84426,N,11112.46212,W,2,12,0.59,605.2,M,-28.3,M,,0000*70

$GPGGA,130615.00,3226.84427,N,11112.46216,W,2,12,0.59,605.0,M,-28.3,M,,0000*76

$GPGGA,130616.00,3226.84428,N,11112.46220,W,2,12,0.59,605.0,M,-28.3,M,,0000*7F

$GPGGA,130617.00,3226.84428,N,11112.46223,W,2,12,0.59,604.9,M,-28.3,M,,0000*75

$GPGGA,130618.00,3226.84429,N,11112.46227,W,2,12,0.56,604.9,M,-28.3,M,,0000*70

$GPGGA,130619.00,3226.84430,N,11112.46229,W,2,12,0.59,604.7,M,-28.3,M,,0000*76

$GPGGA,130620.00,3226.84431,N,11112.46234,W,2,12,0.59,604.7,M,-28.3,M,,0000*71

$GPGGA,130621.00,3226.84431,N,11112.46239,W,2,12,0.56,604.6,M,-28.3,M,,0000*73

$GPGGA,130622.00,3226.84434,N,11112.46245,W,2,12,0.54,604.6,M,-28.3,M,,0000*7C

$GPGGA,130623.00,3226.84438,N,11112.46247,W,2,12,0.54,604.8,M,-28.3,M,,0000*7D

$GPGGA,130624.00,3226.84440,N,11112.46248,W,2,12,0.54,605.0,M,-28.3,M,,0000*73

$GPGGA,130625.00,3226.84443,N,11112.46247,W,2,12,0.54,605.2,M,-28.3,M,,0000*7C

$GPGGA,130626.00,3226.84444,N,11112.46247,W,2,12,0.56,605.4,M,-28.3,M,,0000*7C

$GPGGA,130627.00,3226.84447,N,11112.46246,W,2,12,0.55,605.7,M,-28.3,M,,0000*7F

$GPGGA,130628.00,3226.84457,N,11112.46246,W,2,12,0.55,606.2,M,-28.3,M,,0000*77

$GPGGA,130629.00,3226.84460,N,11112.46247,W,2,12,0.57,606.4,M,-28.3,M,,0000*77

$GPGGA,130630.00,3226.84462,N,11112.46245,W,2,12,0.57,606.6,M,-28.3,M,,0000*7D

$GPGGA,130631.00,3226.84463,N,11112.46244,W,2,12,0.54,606.8,M,-28.3,M,,0000*71

$GPGGA,130632.00,3226.84464,N,11112.46243,W,2,12,0.54,607.1,M,-28.3,M,,0000*7A

$GPGGA,130633.00,3226.84464,N,11112.46242,W,2,12,0.54,607.2,M,-28.3,M,,0000*79

$GPGGA,130634.00,3226.84468,N,11112.46239,W,2,12,0.54,607.3,M,-28.3,M,,0000*7F

$GPGGA,130635.00,3226.84471,N,11112.46240,W,2,12,0.54,607.3,M,-28.3,M,,0000*78

$GPGGA,130636.00,3226.84471,N,11112.46241,W,2,12,0.54,607.3,M,-28.3,M,,0000*7A

$GPGGA,130637.00,3226.84472,N,11112.46243,W,2,12,0.56,607.3,M,-28.3,M,,0000*78

$GPGGA,130638.00,3226.84472,N,11112.46244,W,2,12,0.54,607.3,M,-28.3,M,,0000*72

$GPGGA,130639.00,3226.84472,N,11112.46246,W,2,12,0.54,607.3,M,-28.3,M,,0000*71

$GPGGA,130640.00,3226.84472,N,11112.46248,W,2,12,0.54,607.2,M,-28.3,M,,0000*70

$GPGGA,130641.00,3226.84472,N,11112.46250,W,2,12,0.54,607.2,M,-28.3,M,,0000*78

$GPGGA,130642.00,3226.84473,N,11112.46251,W,2,12,0.54,607.2,M,-28.3,M,,0000*7B

$GPGGA,130643.00,3226.84473,N,11112.46252,W,2,12,0.54,607.2,M,-28.3,M,,0000*79

$GPGGA,130644.00,3226.84474,N,11112.46253,W,2,12,0.54,607.2,M,-28.3,M,,0000*78

$GPGGA,130645.00,3226.84474,N,11112.46255,W,2,12,0.54,607.2,M,-28.3,M,,0000*7F

$GPGGA,130646.00,3226.84474,N,11112.46256,W,2,12,0.54,607.1,M,-28.3,M,,0000*7C

$GPGGA,130647.00,3226.84473,N,11112.46257,W,2,12,0.56,607.1,M,-28.3,M,,0000*79

$GPGGA,130648.00,3226.84473,N,11112.46257,W,2,12,0.56,607.0,M,-28.3,M,,0000*77

$GPGGA,130649.00,3226.84474,N,11112.46259,W,2,12,0.56,607.0,M,-28.3,M,,0000*7F

$GPGGA,130650.00,3226.84475,N,11112.46261,W,2,12,0.56,606.9,M,-28.3,M,,0000*75

$GPGGA,130651.00,3226.84476,N,11112.46263,W,2,12,0.56,606.9,M,-28.3,M,,0000*75

$GPGGA,130652.00,3226.84478,N,11112.46264,W,2,12,0.56,606.8,M,-28.3,M,,0000*7E

$GPGGA,130653.00,3226.84480,N,11112.46265,W,2,12,0.56,606.8,M,-28.3,M,,0000*79

$GPGGA,130654.00,3226.84481,N,11112.46266,W,2,12,0.54,606.7,M,-28.3,M,,0000*71

$GPGGA,130655.00,3226.84482,N,11112.46266,W,2,12,0.56,606.7,M,-28.3,M,,0000*71

$GPGGA,130656.00,3226.84483,N,11112.46265,W,2,12,0.56,606.7,M,-28.3,M,,0000*70

$GPGGA,130657.00,3226.84483,N,11112.46264,W,2,12,0.56,606.6,M,-28.3,M,,0000*71

$GPGGA,130658.00,3226.84483,N,11112.46263,W,2,12,0.56,606.6,M,-28.3,M,,0000*79

$GPGGA,130659.00,3226.84483,N,11112.46262,W,2,12,0.56,606.5,M,-28.3,M,,0000*7A

$GPGGA,130700.00,3226.84483,N,11112.46261,W,2,12,0.54,606.4,M,-28.3,M,,0000*77

$GPGGA,130701.00,3226.84481,N,11112.46260,W,2,12,0.56,606.4,M,-28.3,M,,0000*77

$GPGGA,130702.00,3226.84481,N,11112.46258,W,2,12,0.56,606.4,M,-28.3,M,,0000*7F

$GPGGA,130703.00,3226.84479,N,11112.46255,W,2,12,0.56,606.3,M,-28.3,M,,0000*73

$GPGGA,130704.00,3226.84477,N,11112.46253,W,2,12,0.56,606.2,M,-28.3,M,,0000*7D

$GPGGA,130705.00,3226.84476,N,11112.46252,W,2,12,0.56,606.2,M,-28.3,M,,0000*7C

$GPGGA,130706.00,3226.84475,N,11112.46250,W,2,12,0.54,606.1,M,-28.3,M,,0000*7F

$GPGGA,130707.00,3226.84474,N,11112.46248,W,2,12,0.56,606.1,M,-28.3,M,,0000*74

$GPGGA,130708.00,3226.84474,N,11112.46247,W,2,12,0.56,606.1,M,-28.3,M,,0000*74

$GPGGA,130709.00,3226.84474,N,11112.46246,W,2,12,0.56,606.0,M,-28.3,M,,0000*75

$GPGGA,130710.00,3226.84475,N,11112.46246,W,2,12,0.56,605.9,M,-28.3,M,,0000*76

$GPGGA,130711.00,3226.84475,N,11112.46245,W,2,12,0.56,605.9,M,-28.3,M,,0000*74

$GPGGA,130712.00,3226.84475,N,11112.46244,W,2,12,0.56,605.8,M,-28.3,M,,0000*77

$GPGGA,130713.00,3226.84475,N,11112.46242,W,2,12,0.56,605.8,M,-28.3,M,,0000*70

$GPGGA,130714.00,3226.84431,N,11112.46197,W,2,12,0.67,605.6,M,-28.3,M,,0000*70

$GPGGA,130715.00,3226.84421,N,11112.46187,W,2,12,0.60,605.6,M,-28.3,M,,0000*76

$GPGGA,130716.00,3226.84419,N,11112.46183,W,2,12,0.60,605.7,M,-28.3,M,,0000*7B

$GPGGA,130717.00,3226.84425,N,11112.46181,W,2,12,0.64,605.8,M,-28.3,M,,0000*7C

$GPGGA,130718.00,3226.84430,N,11112.46175,W,2,12,0.60,605.9,M,-28.3,M,,0000*79

$GPGGA,130719.00,3226.84433,N,11112.46173,W,2,12,0.59,606.2,M,-28.3,M,,0000*7F

$GPGGA,130720.00,3226.84437,N,11112.46170,W,2,12,0.59,606.3,M,-28.3,M,,0000*73

$GPGGA,130721.00,3226.84444,N,11112.46171,W,2,12,0.57,606.4,M,-28.3,M,,0000*7E

$GPGGA,130722.00,3226.84447,N,11112.46172,W,2,12,0.59,606.4,M,-28.3,M,,0000*73

$GPGGA,130723.00,3226.84450,N,11112.46173,W,2,12,0.60,606.4,M,-28.3,M,,0000*7F

$GPGGA,130724.00,3226.84454,N,11112.46172,W,2,12,0.65,606.5,M,-28.3,M,,0000*79

$GPGGA,130725.00,3226.84461,N,11112.46173,W,2,12,0.65,606.6,M,-28.3,M,,0000*7C

$GPGGA,130726.00,3226.84464,N,11112.46175,W,2,12,0.65,606.7,M,-28.3,M,,0000*7D

$GPGGA,130727.00,3226.84466,N,11112.46174,W,2,12,0.64,606.6,M,-28.3,M,,0000*7F

$GPGGA,130728.00,3226.84470,N,11112.46174,W,2,12,0.64,606.5,M,-28.3,M,,0000*74

$GPGGA,130729.00,3226.84474,N,11112.46173,W,2,12,0.56,606.6,M,-28.3,M,,0000*74

$GPGGA,130730.00,3226.84475,N,11112.46172,W,2,12,0.54,606.7,M,-28.3,M,,0000*7F

$GPGGA,130731.00,3226.84477,N,11112.46174,W,2,12,0.56,606.7,M,-28.3,M,,0000*78

$GPGGA,130732.00,3226.84479,N,11112.46174,W,2,12,0.56,606.7,M,-28.3,M,,0000*75

$GPGGA,130733.00,3226.84480,N,11112.46174,W,2,12,0.54,606.8,M,-28.3,M,,0000*7F

$GPGGA,130734.00,3226.84482,N,11112.46173,W,2,12,0.59,606.8,M,-28.3,M,,0000*70

$GPGGA,130735.00,3226.84483,N,11112.46175,W,2,12,0.56,606.8,M,-28.3,M,,0000*79

$GPGGA,130736.00,3226.84487,N,11112.46177,W,2,12,0.57,606.9,M,-28.3,M,,0000*7C

$GPGGA,130737.00,3226.84489,N,11112.46179,W,2,12,0.54,606.9,M,-28.3,M,,0000*7E

$GPGGA,130738.00,3226.84493,N,11112.46181,W,2,12,0.54,607.0,M,-28.3,M,,0000*75

$GPGGA,130739.00,3226.84496,N,11112.46183,W,2,12,0.54,607.0,M,-28.3,M,,0000*73

$GPGGA,130740.00,3226.84499,N,11112.46185,W,2,12,0.54,607.1,M,-28.3,M,,0000*75

$GPGGA,130741.00,3226.84502,N,11112.46187,W,2,12,0.54,607.1,M,-28.3,M,,0000*75

$GPGGA,130742.00,3226.84504,N,11112.46189,W,2,12,0.54,607.1,M,-28.3,M,,0000*7E

$GPGGA,130743.00,3226.84506,N,11112.46190,W,2,12,0.54,607.1,M,-28.3,M,,0000*75

$GPGGA,130744.00,3226.84509,N,11112.46192,W,2,12,0.54,607.1,M,-28.3,M,,0000*7F

$GPGGA,130745.00,3226.84511,N,11112.46195,W,2,12,0.54,607.2,M,-28.3,M,,0000*73

$GPGGA,130746.00,3226.84514,N,11112.46197,W,2,12,0.54,607.2,M,-28.3,M,,0000*77

$GPGGA,130747.00,3226.84515,N,11112.46197,W,2,12,0.57,607.3,M,-28.3,M,,0000*75

$GPGGA,130748.00,3226.84516,N,11112.46197,W,2,12,0.54,607.3,M,-28.3,M,,0000*7A

$GPGGA,130749.00,3226.84519,N,11112.46197,W,2,12,0.54,607.5,M,-28.3,M,,0000*72

$GPGGA,130750.00,3226.84521,N,11112.46197,W,2,12,0.54,607.6,M,-28.3,M,,0000*72

$GPGGA,130751.00,3226.84523,N,11112.46195,W,2,12,0.54,607.7,M,-28.3,M,,0000*72

$GPGGA,130752.00,3226.84526,N,11112.46194,W,2,12,0.56,607.9,M,-28.3,M,,0000*79

$GPGGA,130753.00,3226.84529,N,11112.46194,W,2,12,0.56,608.1,M,-28.3,M,,0000*70

$GPGGA,130754.00,3226.84533,N,11112.46195,W,2,12,0.56,608.2,M,-28.3,M,,0000*7E

$GPGGA,130755.00,3226.84537,N,11112.46196,W,2,12,0.56,608.5,M,-28.3,M,,0000*7F

$GPGGA,130756.00,3226.84543,N,11112.46198,W,2,12,0.56,608.7,M,-28.3,M,,0000*73

$GPGGA,130757.00,3226.84548,N,11112.46200,W,2,12,0.54,608.9,M,-28.3,M,,0000*77

$GPGGA,130758.00,3226.84552,N,11112.46203,W,2,12,0.54,609.1,M,-28.3,M,,0000*79

$GPGGA,130759.00,3226.84555,N,11112.46205,W,2,12,0.54,609.2,M,-28.3,M,,0000*7A

$GPGGA,130800.00,3226.84558,N,11112.46207,W,2,12,0.54,609.4,M,-28.3,M,,0000*70

$GPGGA,130801.00,3226.84560,N,11112.46209,W,2,12,0.54,609.5,M,-28.3,M,,0000*75

$GPGGA,130802.00,3226.84562,N,11112.46209,W,2,12,0.54,609.5,M,-28.3,M,,0000*74

$GPGGA,130803.00,3226.84565,N,11112.46211,W,2,12,0.54,609.5,M,-28.3,M,,0000*7B

$GPGGA,130804.00,3226.84566,N,11112.46212,W,2,12,0.54,609.5,M,-28.3,M,,0000*7C

$GPGGA,130805.00,3226.84568,N,11112.46215,W,2,12,0.54,609.5,M,-28.3,M,,0000*74

$GPGGA,130806.00,3226.84568,N,11112.46217,W,2,12,0.54,609.5,M,-28.3,M,,0000*75

$GPGGA,130807.00,3226.84569,N,11112.46219,W,2,12,0.54,609.4,M,-28.3,M,,0000*7A

$GPGGA,130808.00,3226.84570,N,11112.46221,W,2,12,0.54,609.4,M,-28.3,M,,0000*76

$GPGGA,130809.00,3226.84571,N,11112.46222,W,2,12,0.54,609.3,M,-28.3,M,,0000*72

$GPGGA,130810.00,3226.84571,N,11112.46224,W,2,12,0.54,609.3,M,-28.3,M,,0000*7C

$GPGGA,130811.00,3226.84571,N,11112.46224,W,2,12,0.54,609.3,M,-28.3,M,,0000*7D

$GPGGA,130812.00,3226.84572,N,11112.46224,W,2,12,0.54,609.3,M,-28.3,M,,0000*7D

$GPGGA,130813.00,3226.84573,N,11112.46224,W,2,12,0.56,609.2,M,-28.3,M,,0000*7E

$GPGGA,130814.00,3226.84574,N,11112.46224,W,2,12,0.54,609.2,M,-28.3,M,,0000*7C

$GPGGA,130815.00,3226.84574,N,11112.46226,W,2,12,0.54,609.2,M,-28.3,M,,0000*7F

$GPGGA,130816.00,3226.84575,N,11112.46227,W,2,12,0.54,609.1,M,-28.3,M,,0000*7F

$GPGGA,130817.00,3226.84576,N,11112.46229,W,2,12,0.54,609.0,M,-28.3,M,,0000*72

$GPGGA,130818.00,3226.84577,N,11112.46231,W,2,12,0.56,609.0,M,-28.3,M,,0000*77

$GPGGA,130819.00,3226.84578,N,11112.46233,W,2,12,0.54,608.9,M,-28.3,M,,0000*71

$GPGGA,130820.00,3226.84579,N,11112.46232,W,2,12,0.54,608.9,M,-28.3,M,,0000*7B

$GPGGA,130821.00,3226.84580,N,11112.46225,W,2,12,0.54,608.8,M,-28.3,M,,0000*7B

$GPGGA,130822.00,3226.84580,N,11112.46224,W,2,12,0.54,608.7,M,-28.3,M,,0000*76

$GPGGA,130823.00,3226.84580,N,11112.46220,W,2,12,0.54,608.7,M,-28.3,M,,0000*73

$GPGGA,130824.00,3226.84580,N,11112.46216,W,2,12,0.54,608.6,M,-28.3,M,,0000*70

$GPGGA,130825.00,3226.84579,N,11112.46215,W,2,12,0.54,608.6,M,-28.3,M,,0000*74

$GPGGA,130826.00,3226.84578,N,11112.46212,W,2,12,0.54,608.5,M,-28.3,M,,0000*72

$GPGGA,130827.00,3226.84576,N,11112.46209,W,2,12,0.54,608.4,M,-28.3,M,,0000*76

$GPGGA,130828.00,3226.84574,N,11112.46205,W,2,12,0.54,608.4,M,-28.3,M,,0000*77

$GPGGA,130829.00,3226.84572,N,11112.46199,W,2,12,0.54,608.3,M,-28.3,M,,0000*71

$GPGGA,130830.00,3226.84569,N,11112.46195,W,2,12,0.54,608.3,M,-28.3,M,,0000*7F

$GPGGA,130831.00,3226.84565,N,11112.46191,W,2,12,0.54,608.2,M,-28.3,M,,0000*77

$GPGGA,130832.00,3226.84562,N,11112.46188,W,2,12,0.54,608.1,M,-28.3,M,,0000*78

$GPGGA,130833.00,3226.84561,N,11112.46185,W,2,12,0.54,608.0,M,-28.3,M,,0000*76

$GPGGA,130834.00,3226.84558,N,11112.46181,W,2,12,0.55,607.9,M,-28.3,M,,0000*78

$GPGGA,130835.00,3226.84553,N,11112.46176,W,2,12,0.55,607.9,M,-28.3,M,,0000*7A

$GPGGA,130836.00,3226.84552,N,11112.46172,W,2,12,0.55,607.8,M,-28.3,M,,0000*7D

$GPGGA,130837.00,3226.84549,N,11112.46167,W,2,12,0.55,607.8,M,-28.3,M,,0000*72

$GPGGA,130838.00,3226.84545,N,11112.46162,W,2,12,0.55,607.7,M,-28.3,M,,0000*7B

$GPGGA,130839.00,3226.84544,N,11112.46159,W,2,12,0.55,607.7,M,-28.3,M,,0000*73

$GPGGA,130840.00,3226.84542,N,11112.46157,W,2,12,0.55,607.7,M,-28.3,M,,0000*75

$GPGGA,130841.00,3226.84541,N,11112.46154,W,2,12,0.55,607.7,M,-28.3,M,,0000*74

$GPGGA,130842.00,3226.84538,N,11112.46150,W,2,12,0.55,607.7,M,-28.3,M,,0000*7D

$GPGGA,130843.00,3226.84533,N,11112.46148,W,2,12,0.55,607.8,M,-28.3,M,,0000*71

$GPGGA,130844.00,3226.84530,N,11112.46146,W,2,12,0.55,607.8,M,-28.3,M,,0000*7B

$GPGGA,130845.00,3226.84528,N,11112.46147,W,2,12,0.55,608.0,M,-28.3,M,,0000*75

$GPGGA,130846.00,3226.84525,N,11112.46146,W,2,12,0.55,608.0,M,-28.3,M,,0000*7A

$GPGGA,130847.00,3226.84522,N,11112.46146,W,2,12,0.54,608.1,M,-28.3,M,,0000*7C

$GPGGA,130848.00,3226.84518,N,11112.46147,W,2,12,0.55,608.2,M,-28.3,M,,0000*79

$GPGGA,130849.00,3226.84515,N,11112.46148,W,2,12,0.54,608.3,M,-28.3,M,,0000*7A

$GPGGA,130850.00,3226.84510,N,11112.46147,W,2,12,0.54,608.3,M,-28.3,M,,0000*78

$GPGGA,130851.00,3226.84506,N,11112.46147,W,2,12,0.54,608.2,M,-28.3,M,,0000*7F

$GPGGA,130852.00,3226.84503,N,11112.46147,W,2,12,0.55,608.2,M,-28.3,M,,0000*78

$GPGGA,130853.00,3226.84503,N,11112.46146,W,2,12,0.55,608.3,M,-28.3,M,,0000*79

$GPGGA,130854.00,3226.84502,N,11112.46147,W,2,12,0.54,608.3,M,-28.3,M,,0000*7F

$GPGGA,130855.00,3226.84500,N,11112.46147,W,2,12,0.54,608.3,M,-28.3,M,,0000*7C

$GPGGA,130856.00,3226.84498,N,11112.46147,W,2,12,0.54,608.3,M,-28.3,M,,0000*7F

$GPGGA,130857.00,3226.84498,N,11112.46148,W,2,12,0.54,608.4,M,-28.3,M,,0000*76

$GPGGA,130858.00,3226.84497,N,11112.46149,W,2,12,0.54,608.5,M,-28.3,M,,0000*76

$GPGGA,130859.00,3226.84496,N,11112.46151,W,2,12,0.54,608.5,M,-28.3,M,,0000*7F

$GPGGA,130900.00,3226.84495,N,11112.46152,W,2,12,0.54,608.6,M,-28.3,M,,0000*71

$GPGGA,130901.00,3226.84495,N,11112.46151,W,2,12,0.54,608.7,M,-28.3,M,,0000*72

$GPGGA,130902.00,3226.84494,N,11112.46151,W,2,12,0.54,608.7,M,-28.3,M,,0000*70

$GPGGA,130903.00,3226.84494,N,11112.46151,W,2,12,0.54,608.8,M,-28.3,M,,0000*7E

$GPGGA,130904.00,3226.84494,N,11112.46153,W,2,12,0.54,608.8,M,-28.3,M,,0000*7B

$GPGGA,130905.00,3226.84493,N,11112.46153,W,2,12,0.54,608.9,M,-28.3,M,,0000*7C

$GPGGA,130906.00,3226.84493,N,11112.46153,W,2,12,0.54,608.9,M,-28.3,M,,0000*7F

$GPGGA,130907.00,3226.84492,N,11112.46152,W,2,12,0.54,609.0,M,-28.3,M,,0000*76

$GPGGA,130908.00,3226.84492,N,11112.46153,W,2,12,0.54,609.1,M,-28.3,M,,0000*79

$GPGGA,130909.00,3226.84491,N,11112.46151,W,2,12,0.54,609.1,M,-28.3,M,,0000*79

$GPGGA,130910.00,3226.84489,N,11112.46149,W,2,12,0.55,609.1,M,-28.3,M,,0000*70

$GPGGA,130911.00,3226.84489,N,11112.46150,W,2,12,0.55,609.1,M,-28.3,M,,0000*79

$GPGGA,130912.00,3226.84489,N,11112.46152,W,2,12,0.55,609.1,M,-28.3,M,,0000*78

$GPGGA,130913.00,3226.84488,N,11112.46150,W,2,12,0.55,609.0,M,-28.3,M,,0000*7B

$GPGGA,130914.00,3226.84489,N,11112.46153,W,2,12,0.55,608.9,M,-28.3,M,,0000*76

$GPGGA,130915.00,3226.84494,N,11112.46154,W,2,12,0.60,609.0,M,-28.3,M,,0000*72

$GPGGA,130916.00,3226.84495,N,11112.46150,W,2,12,0.57,609.1,M,-28.3,M,,0000*71

$GPGGA,130917.00,3226.84497,N,11112.46150,W,2,12,0.57,609.1,M,-28.3,M,,0000*72

$GPGGA,130918.00,3226.84500,N,11112.46149,W,2,12,0.57,609.2,M,-28.3,M,,0000*79

$GPGGA,130919.00,3226.84501,N,11112.46145,W,2,12,0.57,609.2,M,-28.3,M,,0000*75

$GPGGA,130920.00,3226.84502,N,11112.46142,W,2,12,0.56,609.1,M,-28.3,M,,0000*79

$GPGGA,130921.00,3226.84504,N,11112.46141,W,2,12,0.56,609.2,M,-28.3,M,,0000*7E

$GPGGA,130922.00,3226.84506,N,11112.46139,W,2,12,0.54,609.2,M,-28.3,M,,0000*72

$GPGGA,130923.00,3226.84506,N,11112.46136,W,2,12,0.54,609.3,M,-28.3,M,,0000*7D

$GPGGA,130924.00,3226.84507,N,11112.46133,W,2,12,0.56,609.4,M,-28.3,M,,0000*7B

$GPGGA,130925.00,3226.84508,N,11112.46129,W,2,12,0.54,609.5,M,-28.3,M,,0000*7D

$GPGGA,130926.00,3226.84509,N,11112.46125,W,2,12,0.54,609.6,M,-28.3,M,,0000*70

$GPGGA,130927.00,3226.84510,N,11112.46124,W,2,12,0.54,609.6,M,-28.3,M,,0000*78

$GPGGA,130928.00,3226.84510,N,11112.46123,W,2,12,0.54,609.5,M,-28.3,M,,0000*73

$GPGGA,130929.00,3226.84510,N,11112.46123,W,2,12,0.56,609.5,M,-28.3,M,,0000*70

$GPGGA,130930.00,3226.84510,N,11112.46124,W,2,12,0.54,609.4,M,-28.3,M,,0000*7C

$GPGGA,130931.00,3226.84510,N,11112.46124,W,2,12,0.54,609.3,M,-28.3,M,,0000*7A

$GPGGA,130932.00,3226.84511,N,11112.46126,W,2,12,0.54,609.3,M,-28.3,M,,0000*7A

$GPGGA,130933.00,3226.84513,N,11112.46127,W,2,12,0.54,609.2,M,-28.3,M,,0000*79

$GPGGA,130934.00,3226.84515,N,11112.46129,W,2,12,0.54,609.1,M,-28.3,M,,0000*75

$GPGGA,130935.00,3226.84517,N,11112.46129,W,2,12,0.58,608.9,M,-28.3,M,,0000*73

$GPGGA,130936.00,3226.84517,N,11112.46132,W,2,12,0.54,608.7,M,-28.3,M,,0000*78

$GPGGA,130937.00,3226.84517,N,11112.46134,W,2,12,0.54,608.6,M,-28.3,M,,0000*7E

$GPGGA,130938.00,3226.84515,N,11112.46135,W,2,12,0.54,608.4,M,-28.3,M,,0000*70

$GPGGA,130939.00,3226.84513,N,11112.46137,W,2,12,0.54,608.2,M,-28.3,M,,0000*73

$GPGGA,130940.00,3226.84512,N,11112.46141,W,2,12,0.54,608.0,M,-28.3,M,,0000*7F

$GPGGA,130941.00,3226.84512,N,11112.46144,W,2,12,0.56,607.8,M,-28.3,M,,0000*7E

$GPGGA,130942.00,3226.84509,N,11112.46145,W,2,12,0.54,607.7,M,-28.3,M,,0000*7B

$GPGGA,130943.00,3226.84509,N,11112.46147,W,2,12,0.54,607.6,M,-28.3,M,,0000*79

$GPGGA,130944.00,3226.84509,N,11112.46149,W,2,12,0.54,607.5,M,-28.3,M,,0000*73

$GPGGA,130945.00,3226.84509,N,11112.46148,W,2,12,0.54,607.4,M,-28.3,M,,0000*72

$GPGGA,130946.00,3226.84510,N,11112.46146,W,2,12,0.55,607.3,M,-28.3,M,,0000*71

$GPGGA,130947.00,3226.84511,N,11112.46146,W,2,12,0.56,607.2,M,-28.3,M,,0000*73

$GPGGA,130948.00,3226.84513,N,11112.46146,W,2,12,0.54,607.2,M,-28.3,M,,0000*7C

$GPGGA,130949.00,3226.84513,N,11112.46145,W,2,12,0.54,607.2,M,-28.3,M,,0000*7E

$GPGGA,130950.00,3226.84514,N,11112.46144,W,2,12,0.56,607.2,M,-28.3,M,,0000*72

$GPGGA,130951.00,3226.84515,N,11112.46145,W,2,12,0.54,607.2,M,-28.3,M,,0000*71

$GPGGA,130952.00,3226.84516,N,11112.46146,W,2,12,0.54,607.2,M,-28.3,M,,0000*72

$GPGGA,130953.00,3226.84515,N,11112.46147,W,2,12,0.54,607.2,M,-28.3,M,,0000*71

$GPGGA,130954.00,3226.84515,N,11112.46147,W,2,12,0.55,607.2,M,-28.3,M,,0000*77

$GPGGA,130955.00,3226.84515,N,11112.46148,W,2,12,0.55,607.2,M,-28.3,M,,0000*79

$GPGGA,130956.00,3226.84513,N,11112.46149,W,2,12,0.55,607.2,M,-28.3,M,,0000*7D

$GPGGA,130957.00,3226.84513,N,11112.46150,W,2,12,0.54,607.3,M,-28.3,M,,0000*74

$GPGGA,130958.00,3226.84513,N,11112.46152,W,2,12,0.55,607.3,M,-28.3,M,,0000*78

$GPGGA,130959.00,3226.84511,N,11112.46153,W,2,12,0.55,607.4,M,-28.3,M,,0000*7D

$GPGGA,131000.00,3226.84511,N,11112.46155,W,2,12,0.55,607.4,M,-28.3,M,,0000*7F

$GPGGA,131001.00,3226.84510,N,11112.46157,W,2,12,0.55,607.5,M,-28.3,M,,0000*7C

$GPGGA,131002.00,3226.84508,N,11112.46159,W,2,12,0.55,607.6,M,-28.3,M,,0000*7B

$GPGGA,131003.00,3226.84508,N,11112.46162,W,2,12,0.55,607.7,M,-28.3,M,,0000*73

$GPGGA,131004.00,3226.84509,N,11112.46166,W,2,12,0.55,607.8,M,-28.3,M,,0000*7E

$GPGGA,131005.00,3226.84509,N,11112.46169,W,2,12,0.54,607.9,M,-28.3,M,,0000*70

$GPGGA,131006.00,3226.84511,N,11112.46172,W,2,12,0.55,608.0,M,-28.3,M,,0000*77

$GPGGA,131007.00,3226.84512,N,11112.46176,W,2,12,0.55,608.1,M,-28.3,M,,0000*70

$GPGGA,131008.00,3226.84512,N,11112.46178,W,2,12,0.55,608.1,M,-28.3,M,,0000*71

$GPGGA,131009.00,3226.84512,N,11112.46180,W,2,12,0.55,608.2,M,-28.3,M,,0000*74

$GPGGA,131010.00,3226.84513,N,11112.46184,W,2,12,0.55,608.3,M,-28.3,M,,0000*78

$GPGGA,131011.00,3226.84515,N,11112.46186,W,2,12,0.55,608.5,M,-28.3,M,,0000*7B

$GPGGA,131012.00,3226.84519,N,11112.46190,W,2,12,0.55,608.6,M,-28.3,M,,0000*70

$GPGGA,131013.00,3226.84521,N,11112.46194,W,2,12,0.55,608.8,M,-28.3,M,,0000*70

$GPGGA,131014.00,3226.84524,N,11112.46196,W,2,12,0.55,609.0,M,-28.3,M,,0000*79

$GPGGA,131015.00,3226.84527,N,11112.46199,W,2,12,0.58,609.2,M,-28.3,M,,0000*7B

$GPGGA,131016.00,3226.84529,N,11112.46202,W,2,12,0.58,609.3,M,-28.3,M,,0000*76

$GPGGA,131017.00,3226.84529,N,11112.46202,W,2,12,0.58,609.3,M,-28.3,M,,0000*77

$GPGGA,131018.00,3226.84530,N,11112.46203,W,2,12,0.55,609.4,M,-28.3,M,,0000*7B

$GPGGA,131019.00,3226.84531,N,11112.46205,W,2,12,0.58,609.4,M,-28.3,M,,0000*70

$GPGGA,131020.00,3226.84532,N,11112.46207,W,2,12,0.58,609.5,M,-28.3,M,,0000*7A

$GPGGA,131021.00,3226.84533,N,11112.46208,W,2,12,0.58,609.5,M,-28.3,M,,0000*75

$GPGGA,131022.00,3226.84534,N,11112.46211,W,2,12,0.58,609.6,M,-28.3,M,,0000*7A

$GPGGA,131023.00,3226.84535,N,11112.46213,W,2,12,0.58,609.7,M,-28.3,M,,0000*79

$GPGGA,131024.00,3226.84536,N,11112.46215,W,2,12,0.58,609.8,M,-28.3,M,,0000*74

$GPGGA,131025.00,3226.84537,N,11112.46217,W,2,12,0.58,609.9,M,-28.3,M,,0000*77

$GPGGA,131026.00,3226.84538,N,11112.46218,W,2,12,0.57,610.0,M,-28.3,M,,0000*7A

$GPGGA,131027.00,3226.84539,N,11112.46218,W,2,12,0.57,610.0,M,-28.3,M,,0000*7A

$GPGGA,131028.00,3226.84540,N,11112.46220,W,2,12,0.57,610.1,M,-28.3,M,,0000*71

$GPGGA,131029.00,3226.84542,N,11112.46220,W,2,12,0.57,610.1,M,-28.3,M,,0000*72

$GPGGA,131030.00,3226.84543,N,11112.46221,W,2,12,0.57,610.1,M,-28.3,M,,0000*7A

$GPGGA,131031.00,3226.84545,N,11112.46221,W,2,12,0.57,610.2,M,-28.3,M,,0000*7E

$GPGGA,131032.00,3226.84546,N,11112.46219,W,2,12,0.54,610.3,M,-28.3,M,,0000*77

$GPGGA,131033.00,3226.84546,N,11112.46216,W,2,12,0.54,610.4,M,-28.3,M,,0000*7E

$GPGGA,131034.00,3226.84546,N,11112.46213,W,2,12,0.54,610.5,M,-28.3,M,,0000*7D

$GPGGA,131035.00,3226.84546,N,11112.46210,W,2,12,0.54,610.5,M,-28.3,M,,0000*7F

$GPGGA,131036.00,3226.84546,N,11112.46209,W,2,12,0.54,610.5,M,-28.3,M,,0000*74

$GPGGA,131037.00,3226.84546,N,11112.46209,W,2,12,0.54,610.6,M,-28.3,M,,0000*76

$GPGGA,131038.00,3226.84545,N,11112.46207,W,2,12,0.54,610.6,M,-28.3,M,,0000*74

$GPGGA,131039.00,3226.84543,N,11112.46203,W,2,12,0.54,610.6,M,-28.3,M,,0000*77

$GPGGA,131040.00,3226.84542,N,11112.46200,W,2,12,0.56,610.6,M,-28.3,M,,0000*79

$GPGGA,131041.00,3226.84540,N,11112.46196,W,2,12,0.54,610.7,M,-28.3,M,,0000*75

$GPGGA,131042.00,3226.84540,N,11112.46191,W,2,12,0.54,610.8,M,-28.3,M,,0000*7E

$GPGGA,131043.00,3226.84539,N,11112.46186,W,2,12,0.54,610.9,M,-28.3,M,,0000*76

$GPGGA,131044.00,3226.84539,N,11112.46181,W,2,12,0.54,610.9,M,-28.3,M,,0000*76

$GPGGA,131045.00,3226.84538,N,11112.46180,W,2,12,0.54,611.0,M,-28.3,M,,0000*7F

$GPGGA,131046.00,3226.84535,N,11112.46176,W,2,12,0.54,611.0,M,-28.3,M,,0000*78

$GPGGA,131047.00,3226.84534,N,11112.46170,W,2,12,0.54,611.2,M,-28.3,M,,0000*7C

$GPGGA,131048.00,3226.84533,N,11112.46171,W,2,12,0.54,611.2,M,-28.3,M,,0000*75

$GPGGA,131049.00,3226.84526,N,11112.46175,W,2,12,0.55,611.2,M,-28.3,M,,0000*75

$GPGGA,131050.00,3226.84523,N,11112.46175,W,2,12,0.54,611.2,M,-28.3,M,,0000*79

$GPGGA,131051.00,3226.84522,N,11112.46174,W,2,12,0.54,611.2,M,-28.3,M,,0000*78

$GPGGA,131052.00,3226.84521,N,11112.46174,W,2,12,0.54,611.1,M,-28.3,M,,0000*7B

$GPGGA,131053.00,3226.84519,N,11112.46175,W,2,12,0.54,611.1,M,-28.3,M,,0000*70

$GPGGA,131054.00,3226.84516,N,11112.46176,W,2,12,0.54,611.2,M,-28.3,M,,0000*78

$GPGGA,131055.00,3226.84515,N,11112.46176,W,2,12,0.55,611.2,M,-28.3,M,,0000*7B

$GPGGA,131056.00,3226.84514,N,11112.46176,W,2,12,0.55,611.2,M,-28.3,M,,0000*79

$GPGGA,131057.00,3226.84514,N,11112.46178,W,2,12,0.55,611.2,M,-28.3,M,,0000*76

$GPGGA,131058.00,3226.84514,N,11112.46179,W,2,12,0.55,611.2,M,-28.3,M,,0000*78

$GPGGA,131059.00,3226.84513,N,11112.46179,W,2,12,0.55,611.2,M,-28.3,M,,0000*7E

$GPGGA,131100.00,3226.84513,N,11112.46179,W,2,12,0.55,611.2,M,-28.3,M,,0000*73

$GPGGA,131101.00,3226.84512,N,11112.46180,W,2,12,0.55,611.2,M,-28.3,M,,0000*75

$GPGGA,131102.00,3226.84512,N,11112.46180,W,2,12,0.55,611.2,M,-28.3,M,,0000*76

$GPGGA,131103.00,3226.84512,N,11112.46182,W,2,12,0.55,611.2,M,-28.3,M,,0000*75

$GPGGA,131104.00,3226.84511,N,11112.46184,W,2,12,0.55,611.2,M,-28.3,M,,0000*77

$GPGGA,131105.00,3226.84511,N,11112.46185,W,2,12,0.58,611.2,M,-28.3,M,,0000*7A

$GPGGA,131106.00,3226.84511,N,11112.46186,W,2,12,0.55,611.3,M,-28.3,M,,0000*76

$GPGGA,131107.00,3226.84511,N,11112.46187,W,2,12,0.58,611.2,M,-28.3,M,,0000*7A

$GPGGA,131108.00,3226.84510,N,11112.46187,W,2,12,0.55,611.3,M,-28.3,M,,0000*78

$GPGGA,131109.00,3226.84509,N,11112.46187,W,2,12,0.55,611.3,M,-28.3,M,,0000*71

$GPGGA,131110.00,3226.84509,N,11112.46186,W,2,12,0.55,611.3,M,-28.3,M,,0000*78

$GPGGA,131111.00,3226.84507,N,11112.46185,W,2,12,0.54,611.2,M,-28.3,M,,0000*74

$GPGGA,131112.00,3226.84504,N,11112.46183,W,2,12,0.52,611.1,M,-28.3,M,,0000*77

$GPGGA,131113.00,3226.84500,N,11112.46181,W,2,12,0.54,611.0,M,-28.3,M,,0000*77

$GPGGA,131114.00,3226.84499,N,11112.46177,W,2,12,0.52,611.0,M,-28.3,M,,0000*7E

$GPGGA,131115.00,3226.84495,N,11112.46177,W,2,12,0.56,610.8,M,-28.3,M,,0000*7E

$GPGGA,131116.00,3226.84492,N,11112.46180,W,2,12,0.56,610.6,M,-28.3,M,,0000*7C

$GPGGA,131117.00,3226.84487,N,11112.46187,W,2,12,0.54,610.3,M,-28.3,M,,0000*79

$GPGGA,131118.00,3226.84482,N,11112.46195,W,2,12,0.54,610.0,M,-28.3,M,,0000*73

$GPGGA,131119.00,3226.84481,N,11112.46197,W,2,12,0.54,610.0,M,-28.3,M,,0000*73

$GPGGA,131120.00,3226.84480,N,11112.46198,W,2,12,0.54,609.9,M,-28.3,M,,0000*76

$GPGGA,131121.00,3226.84477,N,11112.46199,W,2,12,0.54,609.8,M,-28.3,M,,0000*7F

$GPGGA,131122.00,3226.84475,N,11112.46200,W,2,12,0.54,609.7,M,-28.3,M,,0000*72

$GPGGA,131123.00,3226.84474,N,11112.46202,W,2,12,0.54,609.6,M,-28.3,M,,0000*71

$GPGGA,131124.00,3226.84472,N,11112.46203,W,2,12,0.54,609.5,M,-28.3,M,,0000*72

$GPGGA,131125.00,3226.84471,N,11112.46204,W,2,12,0.54,609.4,M,-28.3,M,,0000*76

$GPGGA,131126.00,3226.84469,N,11112.46206,W,2,12,0.54,609.3,M,-28.3,M,,0000*79

$GPGGA,131127.00,3226.84468,N,11112.46207,W,2,12,0.54,609.2,M,-28.3,M,,0000*79

$GPGGA,131128.00,3226.84469,N,11112.46209,W,2,12,0.54,609.1,M,-28.3,M,,0000*7A

$GPGGA,131129.00,3226.84469,N,11112.46211,W,2,12,0.54,609.0,M,-28.3,M,,0000*73

$GPGGA,131130.00,3226.84470,N,11112.46214,W,2,12,0.54,608.9,M,-28.3,M,,0000*7E

$GPGGA,131131.00,3226.84470,N,11112.46216,W,2,12,0.54,608.8,M,-28.3,M,,0000*7C

$GPGGA,131132.00,3226.84470,N,11112.46218,W,2,12,0.54,608.7,M,-28.3,M,,0000*7E

$GPGGA,131133.00,3226.84470,N,11112.46219,W,2,12,0.54,608.6,M,-28.3,M,,0000*7F

$GPGGA,131134.00,3226.84470,N,11112.46220,W,2,12,0.54,608.5,M,-28.3,M,,0000*71

$GPGGA,131135.00,3226.84470,N,11112.46221,W,2,12,0.54,608.3,M,-28.3,M,,0000*77

$GPGGA,131136.00,3226.84470,N,11112.46222,W,2,12,0.54,608.2,M,-28.3,M,,0000*76

$GPGGA,131137.00,3226.84469,N,11112.46223,W,2,12,0.54,608.2,M,-28.3,M,,0000*7E

$GPGGA,131138.00,3226.84468,N,11112.46225,W,2,12,0.54,608.1,M,-28.3,M,,0000*75

$GPGGA,131139.00,3226.84467,N,11112.46226,W,2,12,0.54,608.0,M,-28.3,M,,0000*79

$GPGGA,131140.00,3226.84465,N,11112.46226,W,2,12,0.54,608.0,M,-28.3,M,,0000*75

$GPGGA,131141.00,3226.84465,N,11112.46227,W,2,12,0.55,607.9,M,-28.3,M,,0000*72

$GPGGA,131142.00,3226.84464,N,11112.46228,W,2,12,0.54,607.8,M,-28.3,M,,0000*7F

$GPGGA,131143.00,3226.84463,N,11112.46230,W,2,12,0.54,607.7,M,-28.3,M,,0000*7F

$GPGGA,131144.00,3226.84462,N,11112.46231,W,2,12,0.55,607.7,M,-28.3,M,,0000*79

$GPGGA,131145.00,3226.84461,N,11112.46232,W,2,12,0.54,607.6,M,-28.3,M,,0000*78

$GPGGA,131146.00,3226.84460,N,11112.46233,W,2,12,0.54,607.5,M,-28.3,M,,0000*78

$GPGGA,131147.00,3226.84459,N,11112.46230,W,2,12,0.55,607.5,M,-28.3,M,,0000*71

$GPGGA,131148.00,3226.84458,N,11112.46230,W,2,12,0.54,607.5,M,-28.3,M,,0000*7E

$GPGGA,131149.00,3226.84458,N,11112.46231,W,2,12,0.54,607.4,M,-28.3,M,,0000*7F

$GPGGA,131150.00,3226.84458,N,11112.46232,W,2,12,0.54,607.3,M,-28.3,M,,0000*73

$GPGGA,131151.00,3226.84458,N,11112.46235,W,2,12,0.54,607.2,M,-28.3,M,,0000*74

$GPGGA,131152.00,3226.84457,N,11112.46236,W,2,12,0.54,607.2,M,-28.3,M,,0000*7B

$GPGGA,131153.00,3226.84456,N,11112.46236,W,2,12,0.54,607.1,M,-28.3,M,,0000*78

$GPGGA,131154.00,3226.84457,N,11112.46236,W,2,12,0.55,607.0,M,-28.3,M,,0000*7E

$GPGGA,131155.00,3226.84458,N,11112.46229,W,2,12,0.54,606.9,M,-28.3,M,,0000*77

$GPGGA,131156.00,3226.84455,N,11112.46221,W,2,12,0.54,606.9,M,-28.3,M,,0000*71

$GPGGA,131157.00,3226.84455,N,11112.46216,W,2,12,0.57,606.9,M,-28.3,M,,0000*77

$GPGGA,131158.00,3226.84455,N,11112.46209,W,2,12,0.58,606.9,M,-28.3,M,,0000*79

$GPGGA,131159.00,3226.84456,N,11112.46206,W,2,12,0.58,606.9,M,-28.3,M,,0000*74

$GPGGA,131200.00,3226.84456,N,11112.46204,W,2,12,0.55,606.9,M,-28.3,M,,0000*74

$GPGGA,131201.00,3226.84457,N,11112.46201,W,2,12,0.55,606.8,M,-28.3,M,,0000*70

$GPGGA,131202.00,3226.84457,N,11112.46197,W,2,12,0.55,606.8,M,-28.3,M,,0000*7F

$GPGGA,131203.00,3226.84457,N,11112.46193,W,2,12,0.55,606.8,M,-28.3,M,,0000*7A

$GPGGA,131204.00,3226.84457,N,11112.46191,W,2,12,0.55,606.7,M,-28.3,M,,0000*70

$GPGGA,131205.00,3226.84458,N,11112.46189,W,2,12,0.55,606.7,M,-28.3,M,,0000*77

$GPGGA,131206.00,3226.84459,N,11112.46188,W,2,12,0.55,606.6,M,-28.3,M,,0000*75

$GPGGA,131207.00,3226.84460,N,11112.46188,W,2,12,0.55,606.5,M,-28.3,M,,0000*7D

$GPGGA,131208.00,3226.84463,N,11112.46187,W,2,12,0.55,606.4,M,-28.3,M,,0000*7F

$GPGGA,131209.00,3226.84464,N,11112.46186,W,2,12,0.55,606.4,M,-28.3,M,,0000*78

$GPGGA,131210.00,3226.84465,N,11112.46186,W,2,12,0.55,606.3,M,-28.3,M,,0000*76

$GPGGA,131211.00,3226.84466,N,11112.46185,W,2,12,0.55,606.2,M,-28.3,M,,0000*76

$GPGGA,131212.00,3226.84467,N,11112.46184,W,2,12,0.55,606.1,M,-28.3,M,,0000*76

$GPGGA,131213.00,3226.84467,N,11112.46184,W,2,12,0.55,606.1,M,-28.3,M,,0000*77

$GPGGA,131214.00,3226.84468,N,11112.46184,W,2,12,0.55,606.0,M,-28.3,M,,0000*7E

$GPGGA,131215.00,3226.84469,N,11112.46182,W,2,12,0.55,605.9,M,-28.3,M,,0000*72

$GPGGA,131216.00,3226.84469,N,11112.46179,W,2,12,0.55,605.8,M,-28.3,M,,0000*74

$GPGGA,131217.00,3226.84470,N,11112.46181,W,2,12,0.55,605.8,M,-28.3,M,,0000*7A

$GPGGA,131218.00,3226.84471,N,11112.46182,W,2,12,0.54,605.8,M,-28.3,M,,0000*76

$GPGGA,131219.00,3226.84472,N,11112.46179,W,2,12,0.54,605.7,M,-28.3,M,,0000*7F

$GPGGA,131220.00,3226.84472,N,11112.46178,W,2,12,0.54,605.7,M,-28.3,M,,0000*74

$GPGGA,131221.00,3226.84472,N,11112.46175,W,2,12,0.52,605.7,M,-28.3,M,,0000*7E

$GPGGA,131222.00,3226.84470,N,11112.46173,W,2,12,0.52,605.7,M,-28.3,M,,0000*79

$GPGGA,131223.00,3226.84468,N,11112.46171,W,2,12,0.52,605.6,M,-28.3,M,,0000*72

$GPGGA,131224.00,3226.84468,N,11112.46170,W,2,12,0.52,605.6,M,-28.3,M,,0000*74

$GPGGA,131225.00,3226.84467,N,11112.46170,W,2,12,0.52,605.7,M,-28.3,M,,0000*7B

$GPGGA,131226.00,3226.84468,N,11112.46170,W,2,12,0.52,605.6,M,-28.3,M,,0000*76

$GPGGA,131227.00,3226.84469,N,11112.46171,W,2,12,0.52,605.6,M,-28.3,M,,0000*77

$GPGGA,131228.00,3226.84470,N,11112.46171,W,2,12,0.52,605.6,M,-28.3,M,,0000*70

$GPGGA,131229.00,3226.84470,N,11112.46172,W,2,12,0.52,605.6,M,-28.3,M,,0000*72

$GPGGA,131230.00,3226.84470,N,11112.46173,W,2,12,0.52,605.7,M,-28.3,M,,0000*7A

$GPGGA,131231.00,3226.84470,N,11112.46174,W,2,12,0.54,605.6,M,-28.3,M,,0000*7B

$GPGGA,131232.00,3226.84469,N,11112.46178,W,2,12,0.54,605.6,M,-28.3,M,,0000*7C

$GPGGA,131233.00,3226.84467,N,11112.46181,W,2,12,0.54,605.7,M,-28.3,M,,0000*74

$GPGGA,131234.00,3226.84466,N,11112.46182,W,2,12,0.54,605.7,M,-28.3,M,,0000*71

$GPGGA,131235.00,3226.84465,N,11112.46184,W,2,12,0.54,605.7,M,-28.3,M,,0000*75

$GPGGA,131236.00,3226.84464,N,11112.46184,W,2,12,0.54,605.6,M,-28.3,M,,0000*76

$GPGGA,131237.00,3226.84463,N,11112.46185,W,2,12,0.54,605.6,M,-28.3,M,,0000*71

$GPGGA,131238.00,3226.84462,N,11112.46186,W,2,12,0.54,605.6,M,-28.3,M,,0000*7C

$GPGGA,131239.00,3226.84461,N,11112.46187,W,2,12,0.54,605.5,M,-28.3,M,,0000*7C

$GPGGA,131240.00,3226.84460,N,11112.46187,W,2,12,0.54,605.5,M,-28.3,M,,0000*73

$GPGGA,131241.00,3226.84460,N,11112.46187,W,2,12,0.54,605.4,M,-28.3,M,,0000*73

$GPGGA,131242.00,3226.84460,N,11112.46188,W,2,12,0.54,605.4,M,-28.3,M,,0000*7F

$GPGGA,131243.00,3226.84460,N,11112.46189,W,2,12,0.54,605.3,M,-28.3,M,,0000*78

$GPGGA,131244.00,3226.84460,N,11112.46189,W,2,12,0.54,605.3,M,-28.3,M,,0000*7F

$GPGGA,131245.00,3226.84460,N,11112.46189,W,2,12,0.54,605.3,M,-28.3,M,,0000*7E

$GPGGA,131246.00,3226.84460,N,11112.46188,W,2,12,0.54,605.2,M,-28.3,M,,0000*7D

$GPGGA,131247.00,3226.84459,N,11112.46188,W,2,12,0.55,605.2,M,-28.3,M,,0000*77

$GPGGA,131248.00,3226.84460,N,11112.46188,W,2,12,0.55,605.2,M,-28.3,M,,0000*72

$GPGGA,131249.00,3226.84459,N,11112.46187,W,2,12,0.57,605.2,M,-28.3,M,,0000*74

$GPGGA,131250.00,3226.84459,N,11112.46186,W,2,12,0.55,605.1,M,-28.3,M,,0000*7C

$GPGGA,131251.00,3226.84459,N,11112.46184,W,2,12,0.55,605.1,M,-28.3,M,,0000*7F

$GPGGA,131252.00,3226.84458,N,11112.46181,W,2,12,0.55,605.1,M,-28.3,M,,0000*78

$GPGGA,131253.00,3226.84458,N,11112.46180,W,2,12,0.55,605.1,M,-28.3,M,,0000*78

$GPGGA,131254.00,3226.84457,N,11112.46180,W,2,12,0.55,605.1,M,-28.3,M,,0000*70

$GPGGA,131255.00,3226.84457,N,11112.46178,W,2,12,0.55,605.0,M,-28.3,M,,0000*77

$GPGGA,131256.00,3226.84457,N,11112.46178,W,2,12,0.55,605.0,M,-28.3,M,,0000*74

$GPGGA,131257.00,3226.84457,N,11112.46179,W,2,12,0.55,605.0,M,-28.3,M,,0000*74

$GPGGA,131258.00,3226.84458,N,11112.46181,W,2,12,0.55,605.0,M,-28.3,M,,0000*73

$GPGGA,131259.00,3226.84459,N,11112.46182,W,2,12,0.55,605.0,M,-28.3,M,,0000*70

$GPGGA,131300.00,3226.84459,N,11112.46185,W,2,12,0.55,604.9,M,-28.3,M,,0000*72

$GPGGA,131301.00,3226.84459,N,11112.46186,W,2,12,0.55,604.9,M,-28.3,M,,0000*70

$GPGGA,131302.00,3226.84459,N,11112.46187,W,2,12,0.55,604.9,M,-28.3,M,,0000*72

$GPGGA,131303.00,3226.84460,N,11112.46188,W,2,12,0.55,604.9,M,-28.3,M,,0000*76

$GPGGA,131304.00,3226.84461,N,11112.46189,W,2,12,0.55,604.8,M,-28.3,M,,0000*70

$GPGGA,131305.00,3226.84463,N,11112.46190,W,2,12,0.55,604.8,M,-28.3,M,,0000*7B

$GPGGA,131306.00,3226.84464,N,11112.46191,W,2,12,0.55,604.7,M,-28.3,M,,0000*71

$GPGGA,131307.00,3226.84466,N,11112.46194,W,2,12,0.55,604.7,M,-28.3,M,,0000*77

$GPGGA,131308.00,3226.84465,N,11112.46193,W,2,12,0.57,604.6,M,-28.3,M,,0000*7F

$GPGGA,131309.00,3226.84465,N,11112.46194,W,2,12,0.54,604.6,M,-28.3,M,,0000*7A

$GPGGA,131310.00,3226.84464,N,11112.46191,W,2,12,0.54,604.5,M,-28.3,M,,0000*75

$GPGGA,131311.00,3226.84458,N,11112.46186,W,2,12,0.54,604.5,M,-28.3,M,,0000*7D

$GPGGA,131312.00,3226.84450,N,11112.46180,W,2,12,0.54,604.4,M,-28.3,M,,0000*71

$GPGGA,131313.00,3226.84448,N,11112.46176,W,2,12,0.54,604.4,M,-28.3,M,,0000*70

$GPGGA,131314.00,3226.84447,N,11112.46176,W,2,12,0.59,604.4,M,-28.3,M,,0000*75

$GPGGA,131315.00,3226.84448,N,11112.46176,W,2,12,0.60,604.4,M,-28.3,M,,0000*71

$GPGGA,131316.00,3226.84444,N,11112.46169,W,2,12,0.54,604.3,M,-28.3,M,,0000*70

$GPGGA,131317.00,3226.84439,N,11112.46161,W,2,12,0.54,604.2,M,-28.3,M,,0000*72

$GPGGA,131318.00,3226.84434,N,11112.46156,W,2,12,0.54,604.1,M,-28.3,M,,0000*77

$GPGGA,131319.00,3226.84428,N,11112.46151,W,2,12,0.54,604.0,M,-28.3,M,,0000*7D

$GPGGA,131320.00,3226.84424,N,11112.46147,W,2,12,0.54,604.1,M,-28.3,M,,0000*7D

$GPGGA,131321.00,3226.84420,N,11112.46141,W,2,12,0.54,604.1,M,-28.3,M,,0000*7E

$GPGGA,131322.00,3226.84416,N,11112.46138,W,2,12,0.52,604.2,M,-28.3,M,,0000*73

$GPGGA,131323.00,3226.84414,N,11112.46136,W,2,12,0.54,604.5,M,-28.3,M,,0000*7F

$GPGGA,131324.00,3226.84410,N,11112.46134,W,2,12,0.52,604.6,M,-28.3,M,,0000*7B

$GPGGA,131325.00,3226.84406,N,11112.46133,W,2,12,0.52,604.7,M,-28.3,M,,0000*7B

$GPGGA,131326.00,3226.84400,N,11112.46131,W,2,12,0.53,604.8,M,-28.3,M,,0000*72

$GPGGA,131327.00,3226.84398,N,11112.46132,W,2,12,0.53,604.9,M,-28.3,M,,0000*77

$GPGGA,131328.00,3226.84396,N,11112.46134,W,2,12,0.52,604.9,M,-28.3,M,,0000*71

$GPGGA,131329.00,3226.84394,N,11112.46135,W,2,12,0.52,605.0,M,-28.3,M,,0000*7B

$GPGGA,131330.00,3226.84391,N,11112.46136,W,2,12,0.52,605.1,M,-28.3,M,,0000*74

$GPGGA,131331.00,3226.84389,N,11112.46139,W,2,12,0.52,605.2,M,-28.3,M,,0000*70

$GPGGA,131332.00,3226.84387,N,11112.46141,W,2,12,0.52,605.3,M,-28.3,M,,0000*73

$GPGGA,131333.00,3226.84383,N,11112.46142,W,2,12,0.52,605.4,M,-28.3,M,,0000*72

$GPGGA,131334.00,3226.84381,N,11112.46144,W,2,12,0.52,605.4,M,-28.3,M,,0000*71

$GPGGA,131335.00,3226.84380,N,11112.46145,W,2,12,0.52,605.5,M,-28.3,M,,0000*71

$GPGGA,131336.00,3226.84377,N,11112.46146,W,2,12,0.52,605.5,M,-28.3,M,,0000*79

$GPGGA,131337.00,3226.84375,N,11112.46148,W,2,12,0.52,605.5,M,-28.3,M,,0000*74

$GPGGA,131338.00,3226.84374,N,11112.46149,W,2,12,0.52,605.5,M,-28.3,M,,0000*7B

$GPGGA,131339.00,3226.84373,N,11112.46151,W,2,12,0.50,605.5,M,-28.3,M,,0000*76

$GPGGA,131340.00,3226.84371,N,11112.46152,W,2,12,0.52,605.5,M,-28.3,M,,0000*7B

$GPGGA,131341.00,3226.84371,N,11112.46153,W,2,12,0.52,605.5,M,-28.3,M,,0000*7B

$GPGGA,131342.00,3226.84370,N,11112.46154,W,2,12,0.50,605.4,M,-28.3,M,,0000*7D

$GPGGA,131343.00,3226.84369,N,11112.46156,W,2,12,0.50,605.4,M,-28.3,M,,0000*76

$GPGGA,131344.00,3226.84367,N,11112.46157,W,2,12,0.50,605.4,M,-28.3,M,,0000*7E

$GPGGA,131345.00,3226.84363,N,11112.46158,W,2,12,0.50,605.4,M,-28.3,M,,0000*74

$GPGGA,131346.00,3226.84360,N,11112.46159,W,2,12,0.50,605.3,M,-28.3,M,,0000*72

$GPGGA,131347.00,3226.84357,N,11112.46160,W,2,12,0.50,605.2,M,-28.3,M,,0000*7C

$GPGGA,131348.00,3226.84355,N,11112.46160,W,2,12,0.52,605.2,M,-28.3,M,,0000*73

$GPGGA,131349.00,3226.84351,N,11112.46161,W,2,12,0.50,605.1,M,-28.3,M,,0000*76

$GPGGA,131350.00,3226.84350,N,11112.46163,W,2,12,0.50,605.1,M,-28.3,M,,0000*7D

$GPGGA,131351.00,3226.84349,N,11112.46165,W,2,12,0.50,605.1,M,-28.3,M,,0000*72

$GPGGA,131352.00,3226.84348,N,11112.46168,W,2,12,0.50,605.0,M,-28.3,M,,0000*7C

$GPGGA,131353.00,3226.84348,N,11112.46169,W,2,12,0.50,604.9,M,-28.3,M,,0000*74

$GPGGA,131354.00,3226.84347,N,11112.46172,W,2,12,0.50,604.9,M,-28.3,M,,0000*76

$GPGGA,131355.00,3226.84347,N,11112.46174,W,2,12,0.50,604.9,M,-28.3,M,,0000*71

$GPGGA,131356.00,3226.84347,N,11112.46175,W,2,12,0.50,604.8,M,-28.3,M,,0000*72

$GPGGA,131357.00,3226.84346,N,11112.46177,W,2,12,0.50,604.8,M,-28.3,M,,0000*70

$GPGGA,131358.00,3226.84346,N,11112.46179,W,2,12,0.50,604.7,M,-28.3,M,,0000*7E

$GPGGA,131359.00,3226.84346,N,11112.46182,W,2,12,0.50,604.7,M,-28.3,M,,0000*7B

$GPGGA,131400.00,3226.84346,N,11112.46187,W,2,12,0.50,604.7,M,-28.3,M,,0000*75

$GPGGA,131401.00,3226.84346,N,11112.46190,W,2,12,0.50,604.7,M,-28.3,M,,0000*72

$GPGGA,131402.00,3226.84345,N,11112.46193,W,2,12,0.50,604.8,M,-28.3,M,,0000*7E

$GPGGA,131403.00,3226.84346,N,11112.46196,W,2,12,0.50,604.8,M,-28.3,M,,0000*79

$GPGGA,131404.00,3226.84347,N,11112.46197,W,2,12,0.50,604.8,M,-28.3,M,,0000*7E

$GPGGA,131405.00,3226.84346,N,11112.46198,W,2,12,0.50,604.8,M,-28.3,M,,0000*71

$GPGGA,131406.00,3226.84348,N,11112.46199,W,2,12,0.50,604.8,M,-28.3,M,,0000*7D

$GPGGA,131407.00,3226.84348,N,11112.46200,W,2,12,0.50,604.7,M,-28.3,M,,0000*70

$GPGGA,131408.00,3226.84349,N,11112.46200,W,2,12,0.50,604.7,M,-28.3,M,,0000*7E

$GPGGA,131409.00,3226.84349,N,11112.46200,W,2,12,0.50,604.7,M,-28.3,M,,0000*7F

$GPGGA,131410.00,3226.84351,N,11112.46200,W,2,12,0.50,604.7,M,-28.3,M,,0000*7E

$GPGGA,131411.00,3226.84354,N,11112.46201,W,2,12,0.50,604.7,M,-28.3,M,,0000*7B

$GPGGA,131412.00,3226.84355,N,11112.46202,W,2,12,0.50,604.7,M,-28.3,M,,0000*7A

$GPGGA,131413.00,3226.84357,N,11112.46203,W,2,12,0.52,604.7,M,-28.3,M,,0000*7A

$GPGGA,131414.00,3226.84359,N,11112.46205,W,2,12,0.52,604.7,M,-28.3,M,,0000*75

$GPGGA,131415.00,3226.84361,N,11112.46207,W,2,12,0.52,604.7,M,-28.3,M,,0000*7D

$GPGGA,131416.00,3226.84361,N,11112.46210,W,2,12,0.52,604.8,M,-28.3,M,,0000*77

$GPGGA,131417.00,3226.84363,N,11112.46212,W,2,12,0.50,604.8,M,-28.3,M,,0000*74

$GPGGA,131418.00,3226.84364,N,11112.46215,W,2,12,0.50,604.8,M,-28.3,M,,0000*7B

$GPGGA,131419.00,3226.84365,N,11112.46217,W,2,12,0.50,604.9,M,-28.3,M,,0000*78

$GPGGA,131420.00,3226.84367,N,11112.46220,W,2,12,0.52,604.9,M,-28.3,M,,0000*76

$GPGGA,131421.00,3226.84368,N,11112.46223,W,2,12,0.50,604.9,M,-28.3,M,,0000*79

$GPGGA,131422.00,3226.84369,N,11112.46226,W,2,12,0.50,605.0,M,-28.3,M,,0000*76

$GPGGA,131423.00,3226.84369,N,11112.46228,W,2,12,0.51,605.0,M,-28.3,M,,0000*78

$GPGGA,131424.00,3226.84369,N,11112.46230,W,2,12,0.50,605.0,M,-28.3,M,,0000*77

$GPGGA,131425.00,3226.84368,N,11112.46232,W,2,12,0.50,605.1,M,-28.3,M,,0000*74

$GPGGA,131426.00,3226.84368,N,11112.46233,W,2,12,0.50,605.1,M,-28.3,M,,0000*76

$GPGGA,131427.00,3226.84369,N,11112.46234,W,2,12,0.50,605.1,M,-28.3,M,,0000*71

$GPGGA,131428.00,3226.84370,N,11112.46236,W,2,12,0.50,605.1,M,-28.3,M,,0000*74

$GPGGA,131429.00,3226.84372,N,11112.46238,W,2,12,0.50,605.1,M,-28.3,M,,0000*79

$GPGGA,131430.00,3226.84374,N,11112.46240,W,2,12,0.50,605.1,M,-28.3,M,,0000*78

$GPGGA,131431.00,3226.84376,N,11112.46244,W,2,12,0.50,605.2,M,-28.3,M,,0000*7C

$GPGGA,131432.00,3226.84377,N,11112.46247,W,2,12,0.50,605.3,M,-28.3,M,,0000*7C

$GPGGA,131433.00,3226.84378,N,11112.46251,W,2,12,0.50,605.3,M,-28.3,M,,0000*75

$GPGGA,131434.00,3226.84379,N,11112.46253,W,2,12,0.50,605.3,M,-28.3,M,,0000*71

$GPGGA,131435.00,3226.84378,N,11112.46255,W,2,12,0.52,605.4,M,-28.3,M,,0000*72

$GPGGA,131436.00,3226.84378,N,11112.46258,W,2,12,0.50,605.5,M,-28.3,M,,0000*7F

$GPGGA,131437.00,3226.84381,N,11112.46263,W,2,12,0.50,605.6,M,-28.3,M,,0000*73

$GPGGA,131438.00,3226.84383,N,11112.46267,W,2,12,0.50,605.7,M,-28.3,M,,0000*7B

$GPGGA,131439.00,3226.84383,N,11112.46271,W,2,12,0.50,605.9,M,-28.3,M,,0000*73

$GPGGA,131440.00,3226.84383,N,11112.46275,W,2,12,0.52,606.0,M,-28.3,M,,0000*71

$GPGGA,131441.00,3226.84383,N,11112.46277,W,2,12,0.52,606.0,M,-28.3,M,,0000*72

$GPGGA,131442.00,3226.84384,N,11112.46279,W,2,12,0.52,606.1,M,-28.3,M,,0000*79

$GPGGA,131443.00,3226.84384,N,11112.46281,W,2,12,0.52,606.1,M,-28.3,M,,0000*7F

$GPGGA,131444.00,3226.84384,N,11112.46283,W,2,12,0.52,606.2,M,-28.3,M,,0000*79

$GPGGA,131445.00,3226.84385,N,11112.46286,W,2,12,0.52,606.3,M,-28.3,M,,0000*7D

$GPGGA,131446.00,3226.84385,N,11112.46290,W,2,12,0.52,606.5,M,-28.3,M,,0000*7F

$GPGGA,131447.00,3226.84385,N,11112.46293,W,2,12,0.52,606.6,M,-28.3,M,,0000*7E

$GPGGA,131448.00,3226.84384,N,11112.46296,W,2,12,0.53,606.7,M,-28.3,M,,0000*75

$GPGGA,131449.00,3226.84384,N,11112.46299,W,2,12,0.53,606.8,M,-28.3,M,,0000*74

$GPGGA,131450.00,3226.84384,N,11112.46302,W,2,12,0.53,606.9,M,-28.3,M,,0000*7E

$GPGGA,131451.00,3226.84385,N,11112.46306,W,2,12,0.56,606.9,M,-28.3,M,,0000*7F

$GPGGA,131452.00,3226.84388,N,11112.46309,W,2,12,0.53,606.9,M,-28.3,M,,0000*7B

$GPGGA,131453.00,3226.84389,N,11112.46313,W,2,12,0.53,607.0,M,-28.3,M,,0000*78

$GPGGA,131454.00,3226.84390,N,11112.46315,W,2,12,0.53,607.0,M,-28.3,M,,0000*71

$GPGGA,131455.00,3226.84391,N,11112.46317,W,2,12,0.53,607.1,M,-28.3,M,,0000*72

$GPGGA,131456.00,3226.84392,N,11112.46319,W,2,12,0.53,607.2,M,-28.3,M,,0000*7F

$GPGGA,131457.00,3226.84392,N,11112.46320,W,2,12,0.53,607.3,M,-28.3,M,,0000*75

$GPGGA,131458.00,3226.84393,N,11112.46321,W,2,12,0.53,607.4,M,-28.3,M,,0000*7D

$GPGGA,131459.00,3226.84393,N,11112.46323,W,2,12,0.53,607.5,M,-28.3,M,,0000*7F

$GPGGA,131500.00,3226.84394,N,11112.46325,W,2,12,0.55,607.6,M,-28.3,M,,0000*76

$GPGGA,131501.00,3226.84394,N,11112.46326,W,2,12,0.53,607.7,M,-28.3,M,,0000*73

$GPGGA,131502.00,3226.84395,N,11112.46326,W,2,12,0.53,607.9,M,-28.3,M,,0000*7F

$GPGGA,131503.00,3226.84395,N,11112.46327,W,2,12,0.53,607.9,M,-28.3,M,,0000*7F

$GPGGA,131504.00,3226.84395,N,11112.46328,W,2,12,0.56,608.1,M,-28.3,M,,0000*75

$GPGGA,131505.00,3226.84396,N,11112.46329,W,2,12,0.53,608.2,M,-28.3,M,,0000*70

$GPGGA,131506.00,3226.84398,N,11112.46330,W,2,12,0.55,608.2,M,-28.3,M,,0000*73

$GPGGA,131507.00,3226.84398,N,11112.46331,W,2,12,0.53,608.2,M,-28.3,M,,0000*75

$GPGGA,131508.00,3226.84399,N,11112.46330,W,2,12,0.53,608.3,M,-28.3,M,,0000*7B

$GPGGA,131509.00,3226.84400,N,11112.46329,W,2,12,0.54,608.3,M,-28.3,M,,0000*72

$GPGGA,131510.00,3226.84401,N,11112.46329,W,2,12,0.52,608.3,M,-28.3,M,,0000*7D

$GPGGA,131511.00,3226.84402,N,11112.46328,W,2,12,0.52,608.4,M,-28.3,M,,0000*79

$GPGGA,131512.00,3226.84403,N,11112.46329,W,2,12,0.52,608.4,M,-28.3,M,,0000*7A

$GPGGA,131513.00,3226.84403,N,11112.46329,W,2,12,0.50,608.5,M,-28.3,M,,0000*78

$GPGGA,131514.00,3226.84404,N,11112.46330,W,2,12,0.50,608.5,M,-28.3,M,,0000*70

$GPGGA,131515.00,3226.84408,N,11112.46333,W,2,12,0.53,608.6,M,-28.3,M,,0000*7E

$GPGGA,131516.00,3226.84409,N,11112.46333,W,2,12,0.50,608.7,M,-28.3,M,,0000*7E

$GPGGA,131517.00,3226.84409,N,11112.46335,W,2,12,0.50,608.7,M,-28.3,M,,0000*79

$GPGGA,131518.00,3226.84410,N,11112.46336,W,2,12,0.50,608.7,M,-28.3,M,,0000*7D

$GPGGA,131519.00,3226.84411,N,11112.46336,W,2,12,0.50,608.7,M,-28.3,M,,0000*7D

$GPGGA,131520.00,3226.84411,N,11112.46334,W,2,12,0.50,608.8,M,-28.3,M,,0000*7A

$GPGGA,131521.00,3226.84412,N,11112.46335,W,2,12,0.52,608.8,M,-28.3,M,,0000*7B

$GPGGA,131522.00,3226.84412,N,11112.46335,W,2,12,0.52,608.9,M,-28.3,M,,0000*79

$GPGGA,131523.00,3226.84410,N,11112.46335,W,2,12,0.52,608.9,M,-28.3,M,,0000*7A

$GPGGA,131524.00,3226.84409,N,11112.46335,W,2,12,0.50,609.0,M,-28.3,M,,0000*7F

$GPGGA,131525.00,3226.84406,N,11112.46333,W,2,12,0.51,609.1,M,-28.3,M,,0000*77

$GPGGA,131526.00,3226.84404,N,11112.46332,W,2,12,0.50,609.1,M,-28.3,M,,0000*76

$GPGGA,131527.00,3226.84402,N,11112.46331,W,2,12,0.50,609.1,M,-28.3,M,,0000*72

$GPGGA,131528.00,3226.84401,N,11112.46331,W,2,12,0.50,609.2,M,-28.3,M,,0000*7D

$GPGGA,131529.00,3226.84399,N,11112.46330,W,2,12,0.50,609.2,M,-28.3,M,,0000*7B

$GPGGA,131530.00,3226.84399,N,11112.46328,W,2,12,0.50,609.2,M,-28.3,M,,0000*7A

$GPGGA,131531.00,3226.84400,N,11112.46327,W,2,12,0.50,609.2,M,-28.3,M,,0000*73

$GPGGA,131532.00,3226.84401,N,11112.46328,W,2,12,0.50,609.2,M,-28.3,M,,0000*7E

$GPGGA,131533.00,3226.84402,N,11112.46327,W,2,12,0.50,609.3,M,-28.3,M,,0000*72

$GPGGA,131534.00,3226.84403,N,11112.46326,W,2,12,0.50,609.3,M,-28.3,M,,0000*75

$GPGGA,131535.00,3226.84406,N,11112.46326,W,2,12,0.50,609.3,M,-28.3,M,,0000*71

$GPGGA,131536.00,3226.84407,N,11112.46326,W,2,12,0.50,609.3,M,-28.3,M,,0000*73

$GPGGA,131537.00,3226.84408,N,11112.46327,W,2,12,0.50,609.3,M,-28.3,M,,0000*7C

$GPGGA,131538.00,3226.84411,N,11112.46328,W,2,12,0.50,609.4,M,-28.3,M,,0000*73

$GPGGA,131539.00,3226.84413,N,11112.46328,W,2,12,0.50,609.4,M,-28.3,M,,0000*70

$GPGGA,131540.00,3226.84417,N,11112.46327,W,2,12,0.50,609.4,M,-28.3,M,,0000*75

$GPGGA,131541.00,3226.84422,N,11112.46320,W,2,12,0.50,609.4,M,-28.3,M,,0000*75

$GPGGA,131542.00,3226.84426,N,11112.46318,W,2,12,0.50,609.4,M,-28.3,M,,0000*79

$GPGGA,131543.00,3226.84429,N,11112.46316,W,2,12,0.51,609.5,M,-28.3,M,,0000*79

$GPGGA,131544.00,3226.84431,N,11112.46319,W,2,12,0.51,609.7,M,-28.3,M,,0000*7A

$GPGGA,131545.00,3226.84433,N,11112.46322,W,2,12,0.51,609.7,M,-28.3,M,,0000*71

$GPGGA,131546.00,3226.84435,N,11112.46323,W,2,12,0.51,609.8,M,-28.3,M,,0000*7A

$GPGGA,131547.00,3226.84437,N,11112.46324,W,2,12,0.51,609.8,M,-28.3,M,,0000*7E

$GPGGA,131548.00,3226.84437,N,11112.46324,W,2,12,0.51,609.7,M,-28.3,M,,0000*7E

$GPGGA,131549.00,3226.84437,N,11112.46325,W,2,12,0.53,609.7,M,-28.3,M,,0000*7C

$GPGGA,131550.00,3226.84437,N,11112.46325,W,2,12,0.53,609.7,M,-28.3,M,,0000*74

$GPGGA,131551.00,3226.84438,N,11112.46325,W,2,12,0.53,609.7,M,-28.3,M,,0000*7A

$GPGGA,131552.00,3226.84439,N,11112.46324,W,2,12,0.53,609.7,M,-28.3,M,,0000*79

$GPGGA,131553.00,3226.84441,N,11112.46322,W,2,12,0.55,609.6,M,-28.3,M,,0000*76

$GPGGA,131554.00,3226.84438,N,11112.46324,W,2,12,0.55,609.6,M,-28.3,M,,0000*79

$GPGGA,131555.00,3226.84438,N,11112.46326,W,2,12,0.53,609.5,M,-28.3,M,,0000*7F

$GPGGA,131556.00,3226.84435,N,11112.46324,W,2,12,0.55,609.7,M,-28.3,M,,0000*77

$GPGGA,131557.00,3226.84429,N,11112.46324,W,2,12,0.53,609.7,M,-28.3,M,,0000*7D

$GPGGA,131558.00,3226.84425,N,11112.46323,W,2,12,0.53,609.8,M,-28.3,M,,0000*76

$GPGGA,131559.00,3226.84425,N,11112.46324,W,2,12,0.53,609.8,M,-28.3,M,,0000*70

$GPGGA,131600.00,3226.84422,N,11112.46325,W,2,12,0.54,609.9,M,-28.3,M,,0000*7F

$GPGGA,131601.00,3226.84418,N,11112.46323,W,2,12,0.54,609.9,M,-28.3,M,,0000*71

$GPGGA,131602.00,3226.84417,N,11112.46322,W,2,12,0.55,609.9,M,-28.3,M,,0000*7D

$GPGGA,131603.00,3226.84418,N,11112.46320,W,2,12,0.53,609.9,M,-28.3,M,,0000*77

$GPGGA,131604.00,3226.84421,N,11112.46317,W,2,12,0.56,609.8,M,-28.3,M,,0000*7A

$GPGGA,131605.00,3226.84425,N,11112.46314,W,2,12,0.56,609.7,M,-28.3,M,,0000*73

$GPGGA,131606.00,3226.84426,N,11112.46310,W,2,12,0.57,609.5,M,-28.3,M,,0000*74

$GPGGA,131607.00,3226.84425,N,11112.46307,W,2,12,0.53,609.3,M,-28.3,M,,0000*72

$GPGGA,131608.00,3226.84424,N,11112.46306,W,2,12,0.53,609.2,M,-28.3,M,,0000*7C

$GPGGA,131609.00,3226.84426,N,11112.46301,W,2,12,0.53,609.1,M,-28.3,M,,0000*7B

$GPGGA,131610.00,3226.84427,N,11112.46301,W,2,12,0.53,609.0,M,-28.3,M,,0000*73

$GPGGA,131611.00,3226.84429,N,11112.46300,W,2,12,0.53,608.9,M,-28.3,M,,0000*75

$GPGGA,131612.00,3226.84432,N,11112.46300,W,2,12,0.53,608.9,M,-28.3,M,,0000*7C

$GPGGA,131613.00,3226.84436,N,11112.46298,W,2,12,0.55,608.8,M,-28.3,M,,0000*7E

$GPGGA,131614.00,3226.84436,N,11112.46292,W,2,12,0.53,608.6,M,-28.3,M,,0000*7B

$GPGGA,131615.00,3226.84432,N,11112.46285,W,2,12,0.55,608.5,M,-28.3,M,,0000*7D

$GPGGA,131616.00,3226.84415,N,11112.46277,W,2,12,0.55,608.5,M,-28.3,M,,0000*76

$GPGGA,131617.00,3226.84415,N,11112.46270,W,2,12,0.55,608.3,M,-28.3,M,,0000*76

$GPGGA,131618.00,3226.84415,N,11112.46268,W,2,12,0.55,608.2,M,-28.3,M,,0000*71

$GPGGA,131619.00,3226.84410,N,11112.46263,W,2,12,0.55,608.2,M,-28.3,M,,0000*7E

$GPGGA,131620.00,3226.84411,N,11112.46258,W,2,12,0.55,608.1,M,-28.3,M,,0000*7E

$GPGGA,131621.00,3226.84407,N,11112.46250,W,2,12,0.55,608.1,M,-28.3,M,,0000*70

$GPGGA,131622.00,3226.84404,N,11112.46244,W,2,12,0.55,608.0,M,-28.3,M,,0000*74

$GPGGA,131623.00,3226.84401,N,11112.46239,W,2,12,0.55,608.0,M,-28.3,M,,0000*7A

$GPGGA,131624.00,3226.84400,N,11112.46238,W,2,12,0.55,608.0,M,-28.3,M,,0000*7D

$GPGGA,131625.00,3226.84401,N,11112.46238,W,2,12,0.55,608.0,M,-28.3,M,,0000*7D

$GPGGA,131626.00,3226.84404,N,11112.46236,W,2,12,0.55,607.9,M,-28.3,M,,0000*73

$GPGGA,131627.00,3226.84405,N,11112.46236,W,2,12,0.55,607.8,M,-28.3,M,,0000*72

$GPGGA,131628.00,3226.84406,N,11112.46236,W,2,12,0.55,607.8,M,-28.3,M,,0000*7E

$GPGGA,131629.00,3226.84406,N,11112.46237,W,2,12,0.53,607.8,M,-28.3,M,,0000*78

$GPGGA,131630.00,3226.84408,N,11112.46237,W,2,12,0.55,607.8,M,-28.3,M,,0000*78

$GPGGA,131631.00,3226.84409,N,11112.46236,W,2,12,0.55,607.8,M,-28.3,M,,0000*79

$GPGGA,131632.00,3226.84412,N,11112.46237,W,2,12,0.55,607.8,M,-28.3,M,,0000*71

$GPGGA,131633.00,3226.84416,N,11112.46237,W,2,12,0.55,607.6,M,-28.3,M,,0000*7A

$GPGGA,131634.00,3226.84420,N,11112.46233,W,2,12,0.55,607.4,M,-28.3,M,,0000*7E

$GPGGA,131635.00,3226.84422,N,11112.46231,W,2,12,0.55,607.3,M,-28.3,M,,0000*78

$GPGGA,131636.00,3226.84426,N,11112.46229,W,2,12,0.55,607.2,M,-28.3,M,,0000*77

$GPGGA,131637.00,3226.84429,N,11112.46228,W,2,12,0.55,607.1,M,-28.3,M,,0000*7B

$GPGGA,131638.00,3226.84430,N,11112.46225,W,2,12,0.55,607.1,M,-28.3,M,,0000*71

$GPGGA,131639.00,3226.84434,N,11112.46220,W,2,12,0.55,607.0,M,-28.3,M,,0000*70

$GPGGA,131640.00,3226.84441,N,11112.46210,W,2,12,0.55,606.7,M,-28.3,M,,0000*79

$GPGGA,131641.00,3226.84444,N,11112.46202,W,2,12,0.55,606.6,M,-28.3,M,,0000*7F

$GPGGA,131642.00,3226.84444,N,11112.46201,W,2,12,0.55,606.5,M,-28.3,M,,0000*7C

$GPGGA,131643.00,3226.84447,N,11112.46192,W,2,12,0.55,606.4,M,-28.3,M,,0000*76

$GPGGA,131644.00,3226.84450,N,11112.46186,W,2,12,0.58,606.2,M,-28.3,M,,0000*79

$GPGGA,131645.00,3226.84448,N,11112.46181,W,2,12,0.53,606.4,M,-28.3,M,,0000*7B

$GPGGA,131646.00,3226.84449,N,11112.46177,W,2,12,0.56,606.4,M,-28.3,M,,0000*75

$GPGGA,131647.00,3226.84451,N,11112.46179,W,2,12,0.57,606.3,M,-28.3,M,,0000*75

$GPGGA,131648.00,3226.84452,N,11112.46177,W,2,12,0.55,606.3,M,-28.3,M,,0000*75

$GPGGA,131649.00,3226.84450,N,11112.46175,W,2,12,0.55,606.3,M,-28.3,M,,0000*74

